[
    {
        "name": "Dr. Caio Silva",
        "cpf": "620.147.859-02",
        "driver_license": "",
        "phone": "+55 (76) 9 1383-7985",
        "vehicle_plate": "RGS-1H33",
        "vehicle_dimensions": {
            "length": 3.0,
            "width": 1.0,
            "height": 3.8
        },
        "vehicle_type": "Van",
        "origin": "Rodovia Heitor Ramos, 19",
        "origin_gps": {
            "location_1": {
                "id": "3305000",
                "latitude": "-21.638",
                "longitude": "-41.0446"
            }
        },
        "destination": "Ch\u00e1cara Augusto Moraes, 874",
        "destination_gps": {
            "location_1": {
                "id": "5210604",
                "latitude": "-15.7565",
                "longitude": "-49.6354"
            }
        },
        "estimated_time": "18:32"
    },
    {
        "name": "Yago da Luz",
        "cpf": "735.609.182-86",
        "driver_license": "",
        "phone": "+55 (63) 9 5854 4911",
        "vehicle_plate": "YYU-5U38",
        "vehicle_dimensions": {
            "length": 0.5,
            "width": 2.5,
            "height": 2.7
        },
        "vehicle_type": "Van",
        "origin": "Aeroporto Martins, 74",
        "origin_gps": {
            "location_1": {
                "id": "4318051",
                "latitude": "-28.5312",
                "longitude": "-51.886"
            }
        },
        "destination": "P\u00e1tio de Santos, 813",
        "destination_gps": {
            "location_1": {
                "id": "5205521",
                "latitude": "-14.1528",
                "longitude": "-48.076"
            }
        },
        "estimated_time": "18:32"
    },
    {
        "name": "Lorenzo Moreira",
        "cpf": "049.835.671-00",
        "driver_license": "",
        "phone": "+55 (050) 99880-4126",
        "vehicle_plate": "UEA-5W01",
        "vehicle_dimensions": {
            "length": 2.4,
            "width": 0.5,
            "height": 3.9
        },
        "vehicle_type": "Truck",
        "origin": "Campo de Martins, 763",
        "origin_gps": {
            "location_1": {
                "id": "2201903",
                "latitude": "-9.07124",
                "longitude": "-44.359"
            }
        },
        "destination": "S\u00edtio Mirella Costela, 8",
        "destination_gps": {
            "location_1": {
                "id": "3526100",
                "latitude": "-24.3101",
                "longitude": "-47.6426"
            }
        },
        "estimated_time": "18:32"
    },
    {
        "name": "Sra. Maria Julia Viana",
        "cpf": "546.893.071-48",
        "driver_license": "",
        "phone": "+55 (93) 90836 8669",
        "vehicle_plate": "TFR-0E49",
        "vehicle_dimensions": {
            "length": 1.0,
            "width": 2.7,
            "height": 0.6
        },
        "vehicle_type": "Truck",
        "origin": "Passarela Diego Ramos, 44",
        "origin_gps": {
            "location_1": {
                "id": "4313201",
                "latitude": "-29.3741",
                "longitude": "-51.1136"
            }
        },
        "destination": "Vale Luigi Rodrigues, 7",
        "destination_gps": {
            "location_1": {
                "id": "3520400",
                "latitude": "-23.7785",
                "longitude": "-45.3552"
            }
        },
        "estimated_time": "18:32"
    },
    {
        "name": "Manuela da Cruz",
        "cpf": "324.850.791-88",
        "driver_license": "",
        "phone": "+55 (96) 9 0263 7334",
        "vehicle_plate": "YWI-9S30",
        "vehicle_dimensions": {
            "length": 3.1,
            "width": 4.2,
            "height": 3.9
        },
        "vehicle_type": "Ba\u00fa",
        "origin": "Conjunto de Nogueira, 4",
        "origin_gps": {
            "location_1": {
                "id": "2203750",
                "latitude": "-9.48342",
                "longitude": "-42.7912"
            }
        },
        "destination": "Aeroporto da Luz, 14",
        "destination_gps": {
            "location_1": {
                "id": "3500709",
                "latitude": "-22.4694",
                "longitude": "-48.9863"
            }
        },
        "estimated_time": "18:32"
    }
]